{"sort": "ImportDate desc", "include_total": true, "resource_id": "8ff027dc-2da2-42e8-85de-78ac3faf470e", "fields": [{"info": {"notes": "", "label": "\u6e2c\u7ad9\u540d\u7a31"}, "type": "text", "id": "SiteName"}, {"info": {"notes": "", "label": "\u7e23\u5e02"}, "type": "text", "id": "County"}, {"info": {"notes": "", "label": "\u7a7a\u6c23\u54c1\u8cea\u6307\u6a19"}, "type": "text", "id": "AQI"}, {"info": {"notes": "", "label": "\u7a7a\u6c23\u6c61\u67d3\u6307\u6a19\u7269"}, "type": "text", "id": "Pollutant"}, {"info": {"notes": "", "label": "\u72c0\u614b"}, "type": "text", "id": "Status"}, {"info": {"notes": "", "label": "\u4e8c\u6c27\u5316\u786b(ppb)"}, "type": "text", "id": "SO2"}, {"info": {"notes": "", "label": "\u4e00\u6c27\u5316\u78b3(ppm)"}, "type": "text", "id": "CO"}, {"info": {"notes": "", "label": "\u4e00\u6c27\u5316\u78b38\u5c0f\u6642\u79fb\u52d5\u5e73\u5747(ppm)"}, "type": "text", "id": "CO_8hr"}, {"info": {"notes": "", "label": "\u81ed\u6c27(ppb)"}, "type": "text", "id": "O3"}, {"info": {"notes": "", "label": "\u81ed\u6c278\u5c0f\u6642\u79fb\u52d5\u5e73\u5747(ppb)"}, "type": "text", "id": "O3_8hr"}, {"info": {"notes": "", "label": "\u61f8\u6d6e\u5fae\u7c92(\u03bcg/m3)"}, "type": "text", "id": "PM10"}, {"info": {"notes": "", "label": "\u7d30\u61f8\u6d6e\u5fae\u7c92(\u03bcg/m3)"}, "type": "text", "id": "PM2.5"}, {"info": {"notes": "", "label": "\u4e8c\u6c27\u5316\u6c2e(ppb)"}, "type": "text", "id": "NO2"}, {"info": {"notes": "", "label": "\u6c2e\u6c27\u5316\u7269(ppb)"}, "type": "text", "id": "NOx"}, {"info": {"notes": "", "label": "\u4e00\u6c27\u5316\u6c2e(ppb)"}, "type": "text", "id": "NO"}, {"info": {"notes": "", "label": "\u98a8\u901f(m/sec)"}, "type": "text", "id": "WindSpeed"}, {"info": {"notes": "", "label": "\u98a8\u5411(degrees)"}, "type": "text", "id": "WindDirec"}, {"info": {"notes": "", "label": "\u8cc7\u6599\u5efa\u7f6e\u65e5\u671f"}, "type": "text", "id": "PublishTime"}, {"info": {"notes": "", "label": "\u7d30\u61f8\u6d6e\u5fae\u7c92\u79fb\u52d5\u5e73\u5747\u503c(\u03bcg/m3)"}, "type": "text", "id": "PM2.5_AVG"}, {"info": {"notes": "", "label": "\u61f8\u6d6e\u5fae\u7c92\u79fb\u52d5\u5e73\u5747\u503c(\u03bcg/m3)"}, "type": "text", "id": "PM10_AVG"}, {"info": {"notes": "", "label": "\u4e8c\u6c27\u5316\u786b\u79fb\u52d5\u5e73\u5747\u503c(ppb)"}, "type": "text", "id": "SO2_AVG"}, {"info": {"notes": "", "label": "\u7d93\u5ea6"}, "type": "text", "id": "Longitude"}, {"info": {"notes": "", "label": "\u7def\u5ea6"}, "type": "text", "id": "Latitude"}, {"info": {"notes": "", "label": "\u6e2c\u7ad9\u7de8\u865f"}, "type": "text", "id": "SiteId"}], "__extras": {"api_key": "9be7b239-557b-4c10-9775-78cadfc555e9"}, "records_format": "objects", "records": [{"SiteName":"基隆","County":"基隆市","AQI":"28","Pollutant":"","Status":"良好","SO2":"0.4","CO":"0.19","CO_8hr":"0.3","O3":"39.2","O3_8hr":"30","PM10":"7","PM2.5":"6","NO2":"1.4","NOx":"2.7","NO":"1.3","WindSpeed":"1.2","WindDirec":"72","PublishTime":"2021/12/15 13:00:00","PM2.5_AVG":"5","PM10_AVG":"6","SO2_AVG":"0","Longitude":"121.760056","Latitude":"25.129167","SiteId":"1","ImportDate":"2021-12-15 13:22:01.380000"},{"SiteName":"汐止","County":"新北市","AQI":"16","Pollutant":"","Status":"良好","SO2":"0.6","CO":"0.17","CO_8hr":"0.4","O3":"40.1","O3_8hr":"17","PM10":"0","PM2.5":"1","NO2":"6.2","NOx":"8.8","NO":"2.6","WindSpeed":"2.3","WindDirec":"152","PublishTime":"2021/12/15 13:00:00","PM2.5_AVG":"3","PM10_AVG":"5","SO2_AVG":"0","Longitude":"121.6423","Latitude":"25.067131","SiteId":"2","ImportDate":"2021-12-15 13:22:01.380000"},{"SiteName":"萬里","County":"新北市","AQI":"25","Pollutant":"","Status":"良好","SO2":"0.6","CO":"0.21","CO_8hr":"0.2","O3":"43.1","O3_8hr":"27","PM10":"3","PM2.5":"0","NO2":"3.4","NOx":"4.7","NO":"1.3","WindSpeed":"2.7","WindDirec":"142","PublishTime":"2021/12/15 13:00:00","PM2.5_AVG":"1","PM10_AVG":"4","SO2_AVG":"0","Longitude":"121.689881","Latitude":"25.179667","SiteId":"3","ImportDate":"2021-12-15 13:22:01.380000"},{"SiteName":"新店","County":"新北市","AQI":"17","Pollutant":"","Status":"良好","SO2":"0","CO":"0.25","CO_8hr":"0.5","O3":"42","O3_8hr":"18","PM10":"2","PM2.5":"0","NO2":"4","NOx":"6.1","NO":"2","WindSpeed":"2.9","WindDirec":"116","PublishTime":"2021/12/15 13:00:00","PM2.5_AVG":"2","PM10_AVG":"7","SO2_AVG":"0","Longitude":"121.537778","Latitude":"24.977222","SiteId":"4","ImportDate":"2021-12-15 13:22:01.380000"},{"SiteName":"土城","County":"新北市","AQI":"48","Pollutant":"","Status":"良好","SO2":"1.3","CO":"0.49","CO_8hr":"0.8","O3":"42.1","O3_8hr":"13","PM10":"18","PM2.5":"6","NO2":"23.6","NOx":"29.9","NO":"6.3","WindSpeed":"1.5","WindDirec":"76","PublishTime":"2021/12/15 13:00:00","PM2.5_AVG":"14","PM10_AVG":"30","SO2_AVG":"1","Longitude":"121.451861","Latitude":"24.982528","SiteId":"5","ImportDate":"2021-12-15 13:22:01.380000"},{"SiteName":"板橋","County":"新北市","AQI":"40","Pollutant":"","Status":"良好","SO2":"0.5","CO":"0.38","CO_8hr":"0.9","O3":"37.7","O3_8hr":"12","PM10":"1","PM2.5":"2","NO2":"11","NOx":"15","NO":"4","WindSpeed":"1.7","WindDirec":"139","PublishTime":"2021/12/15 13:00:00","PM2.5_AVG":"12","PM10_AVG":"23","SO2_AVG":"0","Longitude":"121.458667","Latitude":"25.012972","SiteId":"6","ImportDate":"2021-12-15 13:22:01.380000"},{"SiteName":"新莊","County":"新北市","AQI":"37","Pollutant":"","Status":"良好","SO2":"0.4","CO":"0.27","CO_8hr":"0.8","O3":"42.8","O3_8hr":"13","PM10":"13","PM2.5":"5","NO2":"6.5","NOx":"8.9","NO":"2.3","WindSpeed":"3.5","WindDirec":"95","PublishTime":"2021/12/15 13:00:00","PM2.5_AVG":"11","PM10_AVG":"22","SO2_AVG":"0","Longitude":"121.4325","Latitude":"25.037972","SiteId":"7","ImportDate":"2021-12-15 13:22:01.380000"},{"SiteName":"菜寮","County":"新北市","AQI":"22","Pollutant":"","Status":"良好","SO2":"0.7","CO":"0.35","CO_8hr":"0.8","O3":"39.7","O3_8hr":"15","PM10":"7","PM2.5":"1","NO2":"9.5","NOx":"12.7","NO":"3.2","WindSpeed":"3.1","WindDirec":"108","PublishTime":"2021/12/15 13:00:00","PM2.5_AVG":"6","PM10_AVG":"11","SO2_AVG":"0","Longitude":"121.481028","Latitude":"25.06895","SiteId":"8","ImportDate":"2021-12-15 13:22:01.380000"},{"SiteName":"林口","County":"新北市","AQI":"26","Pollutant":"","Status":"良好","SO2":"0.7","CO":"0.34","CO_8hr":"0.3","O3":"38.5","O3_8hr":"28","PM10":"12","PM2.5":"4","NO2":"14.1","NOx":"19.3","NO":"5.2","WindSpeed":"1.6","WindDirec":"143","PublishTime":"2021/12/15 13:00:00","PM2.5_AVG":"5","PM10_AVG":"12","SO2_AVG":"0","Longitude":"121.376869","Latitude":"25.077197","SiteId":"9","ImportDate":"2021-12-15 13:22:01.380000"},{"SiteName":"淡水","County":"新北市","AQI":"29","Pollutant":"","Status":"良好","SO2":"0.6","CO":"0.24","CO_8hr":"0.4","O3":"43.1","O3_8hr":"19","PM10":"14","PM2.5":"7","NO2":"7.5","NOx":"8.9","NO":"1.3","WindSpeed":"2","WindDirec":"170","PublishTime":"2021/12/15 13:00:00","PM2.5_AVG":"9","PM10_AVG":"15","SO2_AVG":"0","Longitude":"121.449239","Latitude":"25.1645","SiteId":"10","ImportDate":"2021-12-15 13:22:01.380000"},{"SiteName":"士林","County":"臺北市","AQI":"19","Pollutant":"","Status":"良好","SO2":"0.9","CO":"0.2","CO_8hr":"0.6","O3":"42.3","O3_8hr":"17","PM10":"7","PM2.5":"2","NO2":"7.3","NOx":"9.3","NO":"2","WindSpeed":"4.1","WindDirec":"120","PublishTime":"2021/12/15 13:00:00","PM2.5_AVG":"5","PM10_AVG":"12","SO2_AVG":"1","Longitude":"121.515389","Latitude":"25.105417","SiteId":"11","ImportDate":"2021-12-15 13:22:01.380000"},{"SiteName":"中山","County":"臺北市","AQI":"20","Pollutant":"","Status":"良好","SO2":"0.6","CO":"0.36","CO_8hr":"0.9","O3":"34.4","O3_8hr":"13","PM10":"9","PM2.5":"3","NO2":"12.2","NOx":"17.1","NO":"4.9","WindSpeed":"2.4","WindDirec":"146","PublishTime":"2021/12/15 13:00:00","PM2.5_AVG":"5","PM10_AVG":"13","SO2_AVG":"0","Longitude":"121.526528","Latitude":"25.062361","SiteId":"12","ImportDate":"2021-12-15 13:22:01.380000"},{"SiteName":"萬華","County":"臺北市","AQI":"20","Pollutant":"","Status":"良好","SO2":"0.7","CO":"0.31","CO_8hr":"0.6","O3":"36.1","O3_8hr":"16","PM10":"5","PM2.5":"1","NO2":"12","NOx":"15.2","NO":"3.1","WindSpeed":"1.8","WindDirec":"99","PublishTime":"2021/12/15 13:00:00","PM2.5_AVG":"4","PM10_AVG":"10","SO2_AVG":"0","Longitude":"121.507972","Latitude":"25.046503","SiteId":"13","ImportDate":"2021-12-15 13:22:01.380000"},{"SiteName":"古亭","County":"臺北市","AQI":"17","Pollutant":"","Status":"良好","SO2":"0.9","CO":"0.21","CO_8hr":"0.5","O3":"42.6","O3_8hr":"18","PM10":"3","PM2.5":"0","NO2":"5","NOx":"6.7","NO":"1.6","WindSpeed":"2.4","WindDirec":"79","PublishTime":"2021/12/15 13:00:00","PM2.5_AVG":"3","PM10_AVG":"9","SO2_AVG":"0","Longitude":"121.529556","Latitude":"25.020608","SiteId":"14","ImportDate":"2021-12-15 13:22:01.380000"},{"SiteName":"松山","County":"臺北市","AQI":"19","Pollutant":"","Status":"良好","SO2":"0.6","CO":"0.21","CO_8hr":"0.5","O3":"38.9","O3_8hr":"18","PM10":"11","PM2.5":"4","NO2":"6.3","NOx":"9.3","NO":"2.9","WindSpeed":"3","WindDirec":"57","PublishTime":"2021/12/15 13:00:00","PM2.5_AVG":"5","PM10_AVG":"12","SO2_AVG":"1","Longitude":"121.578611","Latitude":"25.05","SiteId":"15","ImportDate":"2021-12-15 13:22:01.380000"},{"SiteName":"大同","County":"臺北市","AQI":"43","Pollutant":"","Status":"良好","SO2":"1.1","CO":"0.85","CO_8hr":"1.7","O3":"21.7","O3_8hr":"8","PM10":"11","PM2.5":"8","NO2":"26.1","NOx":"54.5","NO":"28.3","WindSpeed":"-","WindDirec":"-","PublishTime":"2021/12/15 13:00:00","PM2.5_AVG":"9","PM10_AVG":"16","SO2_AVG":"1","Longitude":"121.513311","Latitude":"25.0632","SiteId":"16","ImportDate":"2021-12-15 13:22:01.380000"},{"SiteName":"桃園","County":"桃園市","AQI":"42","Pollutant":"","Status":"良好","SO2":"3.6","CO":"0.56","CO_8hr":"0.6","O3":"47.5","O3_8hr":"17","PM10":"24","PM2.5":"14","NO2":"22.8","NOx":"27.7","NO":"4.8","WindSpeed":"1.3","WindDirec":"312","PublishTime":"2021/12/15 13:00:00","PM2.5_AVG":"12","PM10_AVG":"19","SO2_AVG":"3","Longitude":"121.30872222","Latitude":"24.98677778","SiteId":"17","ImportDate":"2021-12-15 13:22:01.380000"},{"SiteName":"大園","County":"桃園市","AQI":"66","Pollutant":"細懸浮微粒","Status":"普通","SO2":"3.7","CO":"0.4","CO_8hr":"0.5","O3":"50.6","O3_8hr":"19","PM10":"24","PM2.5":"21","NO2":"17.3","NOx":"21","NO":"3.6","WindSpeed":"2.6","WindDirec":"50","PublishTime":"2021/12/15 13:00:00","PM2.5_AVG":"21","PM10_AVG":"29","SO2_AVG":"2","Longitude":"121.201811","Latitude":"25.060344","SiteId":"18","ImportDate":"2021-12-15 13:22:01.380000"},{"SiteName":"觀音","County":"桃園市","AQI":"53","Pollutant":"細懸浮微粒","Status":"普通","SO2":"2.8","CO":"0.32","CO_8hr":"0.4","O3":"58.6","O3_8hr":"22","PM10":"23","PM2.5":"14","NO2":"9.6","NOx":"11.2","NO":"1.6","WindSpeed":"2.7","WindDirec":"340","PublishTime":"2021/12/15 13:00:00","PM2.5_AVG":"16","PM10_AVG":"29","SO2_AVG":"2","Longitude":"121.082761","Latitude":"25.035503","SiteId":"19","ImportDate":"2021-12-15 13:22:01.380000"},{"SiteName":"平鎮","County":"桃園市","AQI":"52","Pollutant":"細懸浮微粒","Status":"普通","SO2":"3.4","CO":"0.56","CO_8hr":"0.6","O3":"40.9","O3_8hr":"16","PM10":"32","PM2.5":"22","NO2":"28.4","NOx":"36.8","NO":"8.3","WindSpeed":"1","WindDirec":"276","PublishTime":"2021/12/15 13:00:00","PM2.5_AVG":"15","PM10_AVG":"22","SO2_AVG":"2","Longitude":"121.203986","Latitude":"24.952786","SiteId":"20","ImportDate":"2021-12-15 13:22:01.380000"},{"SiteName":"龍潭","County":"桃園市","AQI":"40","Pollutant":"","Status":"良好","SO2":"2.2","CO":"0.5","CO_8hr":"0.4","O3":"56.3","O3_8hr":"22","PM10":"23","PM2.5":"19","NO2":"19.6","NOx":"23.1","NO":"3.5","WindSpeed":"1.1","WindDirec":"32","PublishTime":"2021/12/15 13:00:00","PM2.5_AVG":"12","PM10_AVG":"21","SO2_AVG":"0","Longitude":"121.21635","Latitude":"24.863869","SiteId":"21","ImportDate":"2021-12-15 13:22:01.380000"},{"SiteName":"湖口","County":"新竹縣","AQI":"65","Pollutant":"細懸浮微粒","Status":"普通","SO2":"2.5","CO":"0.36","CO_8hr":"0.4","O3":"","O3_8hr":"12","PM10":"50","PM2.5":"29","NO2":"","NOx":"","NO":"","WindSpeed":"1.5","WindDirec":"327","PublishTime":"2021/12/15 13:00:00","PM2.5_AVG":"21","PM10_AVG":"35","SO2_AVG":"1","Longitude":"121.038653","Latitude":"24.900142","SiteId":"22","ImportDate":"2021-12-15 13:22:01.380000"},{"SiteName":"竹東","County":"新竹縣","AQI":"38","Pollutant":"","Status":"良好","SO2":"1.5","CO":"0.37","CO_8hr":"0.3","O3":"57.2","O3_8hr":"29","PM10":"28","PM2.5":"18","NO2":"11.1","NOx":"12.9","NO":"1.7","WindSpeed":"1.7","WindDirec":"229","PublishTime":"2021/12/15 13:00:00","PM2.5_AVG":"11","PM10_AVG":"23","SO2_AVG":"1","Longitude":"121.088903","Latitude":"24.740644","SiteId":"23","ImportDate":"2021-12-15 13:22:01.380000"},{"SiteName":"新竹","County":"新竹市","AQI":"63","Pollutant":"細懸浮微粒","Status":"普通","SO2":"2.6","CO":"0.55","CO_8hr":"0.6","O3":"49.7","O3_8hr":"17","PM10":"45","PM2.5":"20","NO2":"24.2","NOx":"28.1","NO":"3.8","WindSpeed":"0.6","WindDirec":"92","PublishTime":"2021/12/15 13:00:00","PM2.5_AVG":"20","PM10_AVG":"33","SO2_AVG":"1","Longitude":"120.972075","Latitude":"24.805619","SiteId":"24","ImportDate":"2021-12-15 13:22:01.380000"},{"SiteName":"頭份","County":"苗栗縣","AQI":"55","Pollutant":"細懸浮微粒","Status":"普通","SO2":"2.1","CO":"0.46","CO_8hr":"0.4","O3":"64.5","O3_8hr":"25","PM10":"43","PM2.5":"22","NO2":"16.3","NOx":"19.3","NO":"2.9","WindSpeed":"1.5","WindDirec":"268","PublishTime":"2021/12/15 13:00:00","PM2.5_AVG":"17","PM10_AVG":"32","SO2_AVG":"2","Longitude":"120.898572","Latitude":"24.696969","SiteId":"25","ImportDate":"2021-12-15 13:22:01.380000"},{"SiteName":"苗栗","County":"苗栗縣","AQI":"44","Pollutant":"","Status":"良好","SO2":"4.1","CO":"0.39","CO_8hr":"0.4","O3":"74.3","O3_8hr":"29","PM10":"29","PM2.5":"17","NO2":"12.2","NOx":"14","NO":"1.8","WindSpeed":"1.8","WindDirec":"305","PublishTime":"2021/12/15 13:00:00","PM2.5_AVG":"13","PM10_AVG":"27","SO2_AVG":"2","Longitude":"120.8202","Latitude":"24.565269","SiteId":"26","ImportDate":"2021-12-15 13:22:01.380000"},{"SiteName":"三義","County":"苗栗縣","AQI":"38","Pollutant":"","Status":"良好","SO2":"1.8","CO":"0.3","CO_8hr":"0.3","O3":"63.7","O3_8hr":"36","PM10":"20","PM2.5":"9","NO2":"5.3","NOx":"6.8","NO":"1.4","WindSpeed":"1.6","WindDirec":"351","PublishTime":"2021/12/15 13:00:00","PM2.5_AVG":"11","PM10_AVG":"26","SO2_AVG":"1","Longitude":"120.758833","Latitude":"24.382942","SiteId":"27","ImportDate":"2021-12-15 13:22:01.380000"},{"SiteName":"豐原","County":"臺中市","AQI":"45","Pollutant":"","Status":"良好","SO2":"2.8","CO":"0.38","CO_8hr":"0.3","O3":"58.5","O3_8hr":"28","PM10":"32","PM2.5":"19","NO2":"11.3","NOx":"14","NO":"2.7","WindSpeed":"2","WindDirec":"304","PublishTime":"2021/12/15 13:00:00","PM2.5_AVG":"14","PM10_AVG":"27","SO2_AVG":"1","Longitude":"120.741711","Latitude":"24.256586","SiteId":"28","ImportDate":"2021-12-15 13:22:01.380000"},{"SiteName":"沙鹿","County":"臺中市","AQI":"55","Pollutant":"細懸浮微粒","Status":"普通","SO2":"1.5","CO":"0.28","CO_8hr":"0.3","O3":"57.8","O3_8hr":"27","PM10":"39","PM2.5":"16","NO2":"8","NOx":"9.5","NO":"1.5","WindSpeed":"3.5","WindDirec":"343","PublishTime":"2021/12/15 13:00:00","PM2.5_AVG":"17","PM10_AVG":"41","SO2_AVG":"1","Longitude":"120.568794","Latitude":"24.225628","SiteId":"29","ImportDate":"2021-12-15 13:22:01.380000"},{"SiteName":"大里","County":"臺中市","AQI":"83","Pollutant":"細懸浮微粒","Status":"普通","SO2":"2.5","CO":"0.41","CO_8hr":"0.7","O3":"79.3","O3_8hr":"28","PM10":"44","PM2.5":"21","NO2":"15.4","NOx":"17.3","NO":"1.8","WindSpeed":"1.7","WindDirec":"295","PublishTime":"2021/12/15 13:00:00","PM2.5_AVG":"28","PM10_AVG":"53","SO2_AVG":"2","Longitude":"120.67844444","Latitude":"24.09961111","SiteId":"30","ImportDate":"2021-12-15 13:22:01.380000"},{"SiteName":"忠明","County":"臺中市","AQI":"70","Pollutant":"細懸浮微粒","Status":"普通","SO2":"2.2","CO":"0.39","CO_8hr":"0.6","O3":"66.4","O3_8hr":"24","PM10":"44","PM2.5":"23","NO2":"19.4","NOx":"21.8","NO":"2.3","WindSpeed":"1.8","WindDirec":"335","PublishTime":"2021/12/15 13:00:00","PM2.5_AVG":"23","PM10_AVG":"44","SO2_AVG":"1","Longitude":"120.641092","Latitude":"24.151958","SiteId":"31","ImportDate":"2021-12-15 13:22:01.380000"},{"SiteName":"西屯","County":"臺中市","AQI":"67","Pollutant":"細懸浮微粒","Status":"普通","SO2":"1.4","CO":"0.3","CO_8hr":"0.4","O3":"","O3_8hr":"6","PM10":"44","PM2.5":"18","NO2":"12.3","NOx":"13.8","NO":"1.4","WindSpeed":"2","WindDirec":"357","PublishTime":"2021/12/15 13:00:00","PM2.5_AVG":"22","PM10_AVG":"45","SO2_AVG":"1","Longitude":"120.616917","Latitude":"24.162197","SiteId":"32","ImportDate":"2021-12-15 13:22:01.380000"},{"SiteName":"彰化","County":"彰化縣","AQI":"82","Pollutant":"細懸浮微粒","Status":"普通","SO2":"3","CO":"0.34","CO_8hr":"0.5","O3":"","O3_8hr":"11","PM10":"64","PM2.5":"24","NO2":"16.1","NOx":"18","NO":"1.9","WindSpeed":"","WindDirec":"","PublishTime":"2021/12/15 13:00:00","PM2.5_AVG":"28","PM10_AVG":"53","SO2_AVG":"3","Longitude":"120.541519","Latitude":"24.066","SiteId":"33","ImportDate":"2021-12-15 13:22:01.380000"},{"SiteName":"線西","County":"彰化縣","AQI":"72","Pollutant":"細懸浮微粒","Status":"普通","SO2":"2","CO":"0.25","CO_8hr":"0.4","O3":"52.3","O3_8hr":"18","PM10":"47","PM2.5":"20","NO2":"7.2","NOx":"8.9","NO":"1.7","WindSpeed":"4.1","WindDirec":"350","PublishTime":"2021/12/15 13:00:00","PM2.5_AVG":"23","PM10_AVG":"57","SO2_AVG":"2","Longitude":"120.469061","Latitude":"24.131672","SiteId":"34","ImportDate":"2021-12-15 13:22:01.380000"},{"SiteName":"二林","County":"彰化縣","AQI":"100","Pollutant":"細懸浮微粒","Status":"普通","SO2":"3.4","CO":"0.39","CO_8hr":"0.4","O3":"55.5","O3_8hr":"21","PM10":"79","PM2.5":"38","NO2":"12.4","NOx":"14.8","NO":"2.4","WindSpeed":"2.5","WindDirec":"322","PublishTime":"2021/12/15 13:00:00","PM2.5_AVG":"35","PM10_AVG":"73","SO2_AVG":"2","Longitude":"120.409653","Latitude":"23.925175","SiteId":"35","ImportDate":"2021-12-15 13:22:01.380000"},{"SiteName":"南投","County":"南投縣","AQI":"68","Pollutant":"細懸浮微粒","Status":"普通","SO2":"2.8","CO":"0.39","CO_8hr":"0.4","O3":"83.1","O3_8hr":"32","PM10":"47","PM2.5":"25","NO2":"14.3","NOx":"15.9","NO":"1.6","WindSpeed":"1.3","WindDirec":"69","PublishTime":"2021/12/15 13:00:00","PM2.5_AVG":"22","PM10_AVG":"42","SO2_AVG":"2","Longitude":"120.685306","Latitude":"23.913","SiteId":"36","ImportDate":"2021-12-15 13:22:01.380000"},{"SiteName":"斗六","County":"雲林縣","AQI":"81","Pollutant":"細懸浮微粒","Status":"普通","SO2":"2.5","CO":"0.39","CO_8hr":"0.3","O3":"88.9","O3_8hr":"37","PM10":"62","PM2.5":"36","NO2":"8","NOx":"8.3","NO":"0.2","WindSpeed":"1.4","WindDirec":"315","PublishTime":"2021/12/15 13:00:00","PM2.5_AVG":"27","PM10_AVG":"57","SO2_AVG":"2","Longitude":"120.544994","Latitude":"23.711853","SiteId":"37","ImportDate":"2021-12-15 13:22:01.380000"},{"SiteName":"崙背","County":"雲林縣","AQI":"92","Pollutant":"懸浮微粒","Status":"普通","SO2":"2.4","CO":"0.36","CO_8hr":"0.4","O3":"","O3_8hr":"10","PM10":"105","PM2.5":"","NO2":"12.4","NOx":"14.9","NO":"2.5","WindSpeed":"1.5","WindDirec":"311","PublishTime":"2021/12/15 13:00:00","PM2.5_AVG":"","PM10_AVG":"92","SO2_AVG":"1","Longitude":"120.348742","Latitude":"23.757547","SiteId":"38","ImportDate":"2021-12-15 13:22:01.380000"},{"SiteName":"新港","County":"嘉義縣","AQI":"115","Pollutant":"細懸浮微粒","Status":"對敏感族群不健康","SO2":"2.8","CO":"0.44","CO_8hr":"0.4","O3":"","O3_8hr":"9","PM10":"77","PM2.5":"53","NO2":"12","NOx":"13.4","NO":"1.4","WindSpeed":"0.7","WindDirec":"319","PublishTime":"2021/12/15 13:00:00","PM2.5_AVG":"41","PM10_AVG":"75","SO2_AVG":"1","Longitude":"120.345531","Latitude":"23.554839","SiteId":"39","ImportDate":"2021-12-15 13:22:01.380000"},{"SiteName":"朴子","County":"嘉義縣","AQI":"92","Pollutant":"細懸浮微粒","Status":"普通","SO2":"4.3","CO":"0.41","CO_8hr":"0.4","O3":"67.9","O3_8hr":"27","PM10":"87","PM2.5":"46","NO2":"10.2","NOx":"12.3","NO":"2.1","WindSpeed":"2.2","WindDirec":"325","PublishTime":"2021/12/15 13:00:00","PM2.5_AVG":"32","PM10_AVG":"70","SO2_AVG":"1","Longitude":"120.24781111","Latitude":"23.46712222","SiteId":"40","ImportDate":"2021-12-15 13:22:01.380000"},{"SiteName":"臺西","County":"雲林縣","AQI":"77","Pollutant":"細懸浮微粒","Status":"普通","SO2":"2.7","CO":"0.28","CO_8hr":"0.2","O3":"","O3_8hr":"23","PM10":"62","PM2.5":"31","NO2":"9.6","NOx":"11.9","NO":"2.2","WindSpeed":"3.4","WindDirec":"15","PublishTime":"2021/12/15 13:00:00","PM2.5_AVG":"26","PM10_AVG":"60","SO2_AVG":"1","Longitude":"120.19933333","Latitude":"23.702175","SiteId":"41","ImportDate":"2021-12-15 13:22:01.380000"},{"SiteName":"嘉義","County":"嘉義市","AQI":"94","Pollutant":"細懸浮微粒","Status":"普通","SO2":"4.2","CO":"0.35","CO_8hr":"0.4","O3":"72.7","O3_8hr":"34","PM10":"57","PM2.5":"28","NO2":"","NOx":"","NO":"","WindSpeed":"0.8","WindDirec":"103","PublishTime":"2021/12/15 13:00:00","PM2.5_AVG":"33","PM10_AVG":"60","SO2_AVG":"5","Longitude":"120.44083333","Latitude":"23.462778","SiteId":"42","ImportDate":"2021-12-15 13:22:01.380000"},{"SiteName":"新營","County":"臺南市","AQI":"99","Pollutant":"細懸浮微粒","Status":"普通","SO2":"1.9","CO":"0.4","CO_8hr":"0.4","O3":"83.7","O3_8hr":"33","PM10":"72","PM2.5":"38","NO2":"10.7","NOx":"11.5","NO":"0.8","WindSpeed":"1","WindDirec":"358","PublishTime":"2021/12/15 13:00:00","PM2.5_AVG":"34","PM10_AVG":"69","SO2_AVG":"1","Longitude":"120.31725","Latitude":"23.305633","SiteId":"43","ImportDate":"2021-12-15 13:22:01.380000"},{"SiteName":"善化","County":"臺南市","AQI":"102","Pollutant":"細懸浮微粒","Status":"對敏感族群不健康","SO2":"2.3","CO":"0.35","CO_8hr":"0.3","O3":"","O3_8hr":"19","PM10":"62","PM2.5":"37","NO2":"11.1","NOx":"12.5","NO":"1.4","WindSpeed":"1.3","WindDirec":"10","PublishTime":"2021/12/15 13:00:00","PM2.5_AVG":"35","PM10_AVG":"67","SO2_AVG":"1","Longitude":"120.297142","Latitude":"23.115097","SiteId":"44","ImportDate":"2021-12-15 13:22:01.380000"},{"SiteName":"安南","County":"臺南市","AQI":"96","Pollutant":"細懸浮微粒","Status":"普通","SO2":"1.8","CO":"0.34","CO_8hr":"0.4","O3":"73.3","O3_8hr":"29","PM10":"76","PM2.5":"31","NO2":"8.9","NOx":"10","NO":"1","WindSpeed":"1.5","WindDirec":"344","PublishTime":"2021/12/15 13:00:00","PM2.5_AVG":"33","PM10_AVG":"77","SO2_AVG":"1","Longitude":"120.2175","Latitude":"23.048197","SiteId":"45","ImportDate":"2021-12-15 13:22:01.380000"},{"SiteName":"臺南","County":"臺南市","AQI":"97","Pollutant":"細懸浮微粒","Status":"普通","SO2":"1.8","CO":"0.35","CO_8hr":"0.4","O3":"74.8","O3_8hr":"31","PM10":"73","PM2.5":"36","NO2":"9.1","NOx":"9.9","NO":"0.7","WindSpeed":"1.6","WindDirec":"349","PublishTime":"2021/12/15 13:00:00","PM2.5_AVG":"34","PM10_AVG":"68","SO2_AVG":"1","Longitude":"120.202617","Latitude":"22.984581","SiteId":"46","ImportDate":"2021-12-15 13:22:01.380000"},{"SiteName":"美濃","County":"高雄市","AQI":"91","Pollutant":"細懸浮微粒","Status":"普通","SO2":"1.8","CO":"0.36","CO_8hr":"0.4","O3":"78.3","O3_8hr":"34","PM10":"","PM2.5":"28","NO2":"5.5","NOx":"6.7","NO":"1.1","WindSpeed":"2","WindDirec":"226","PublishTime":"2021/12/15 13:00:00","PM2.5_AVG":"31","PM10_AVG":"52","SO2_AVG":"1","Longitude":"120.530542","Latitude":"22.883583","SiteId":"47","ImportDate":"2021-12-15 13:22:01.380000"},{"SiteName":"橋頭","County":"高雄市","AQI":"112","Pollutant":"細懸浮微粒","Status":"對敏感族群不健康","SO2":"2.7","CO":"0.41","CO_8hr":"0.4","O3":"86.1","O3_8hr":"32","PM10":"95","PM2.5":"41","NO2":"14","NOx":"15.7","NO":"1.7","WindSpeed":"2.1","WindDirec":"264","PublishTime":"2021/12/15 13:00:00","PM2.5_AVG":"39","PM10_AVG":"76","SO2_AVG":"2","Longitude":"120.305689","Latitude":"22.757506","SiteId":"48","ImportDate":"2021-12-15 13:22:01.380000"},{"SiteName":"仁武","County":"高雄市","AQI":"111","Pollutant":"細懸浮微粒","Status":"對敏感族群不健康","SO2":"2.2","CO":"0.39","CO_8hr":"0.4","O3":"79.1","O3_8hr":"29","PM10":"54","PM2.5":"33","NO2":"13.4","NOx":"15","NO":"1.6","WindSpeed":"2.7","WindDirec":"282","PublishTime":"2021/12/15 13:00:00","PM2.5_AVG":"39","PM10_AVG":"60","SO2_AVG":"2","Longitude":"120.332631","Latitude":"22.689056","SiteId":"49","ImportDate":"2021-12-15 13:22:01.380000"},{"SiteName":"鳳山","County":"高雄市","AQI":"114","Pollutant":"細懸浮微粒","Status":"對敏感族群不健康","SO2":"2.8","CO":"0.83","CO_8hr":"0.8","O3":"76.7","O3_8hr":"28","PM10":"69","PM2.5":"40","NO2":"25.9","NOx":"29.1","NO":"3.1","WindSpeed":"1.2","WindDirec":"271","PublishTime":"2021/12/15 13:00:00","PM2.5_AVG":"40","PM10_AVG":"77","SO2_AVG":"3","Longitude":"120.358083","Latitude":"22.627392","SiteId":"50","ImportDate":"2021-12-15 13:22:01.380000"},{"SiteName":"大寮","County":"高雄市","AQI":"130","Pollutant":"細懸浮微粒","Status":"對敏感族群不健康","SO2":"8.1","CO":"0.75","CO_8hr":"0.6","O3":"73.9","O3_8hr":"34","PM10":"83","PM2.5":"48","NO2":"34.6","NOx":"38","NO":"3.4","WindSpeed":"1.2","WindDirec":"317","PublishTime":"2021/12/15 13:00:00","PM2.5_AVG":"46","PM10_AVG":"83","SO2_AVG":"4","Longitude":"120.425311","Latitude":"22.56413611","SiteId":"51","ImportDate":"2021-12-15 13:22:01.380000"},{"SiteName":"林園","County":"高雄市","AQI":"134","Pollutant":"細懸浮微粒","Status":"對敏感族群不健康","SO2":"4.8","CO":"0.45","CO_8hr":"0.5","O3":"88.2","O3_8hr":"43","PM10":"66","PM2.5":"37","NO2":"12.3","NOx":"14.2","NO":"1.8","WindSpeed":"2.8","WindDirec":"285","PublishTime":"2021/12/15 13:00:00","PM2.5_AVG":"48","PM10_AVG":"98","SO2_AVG":"4","Longitude":"120.41175","Latitude":"22.4795","SiteId":"52","ImportDate":"2021-12-15 13:22:01.380000"},{"SiteName":"楠梓","County":"高雄市","AQI":"98","Pollutant":"細懸浮微粒","Status":"普通","SO2":"1.7","CO":"0.44","CO_8hr":"0.4","O3":"88.2","O3_8hr":"32","PM10":"81","PM2.5":"43","NO2":"17.4","NOx":"18.5","NO":"1.1","WindSpeed":"2.2","WindDirec":"271","PublishTime":"2021/12/15 13:00:00","PM2.5_AVG":"34","PM10_AVG":"68","SO2_AVG":"1","Longitude":"120.328289","Latitude":"22.733667","SiteId":"53","ImportDate":"2021-12-15 13:22:01.380000"},{"SiteName":"左營","County":"高雄市","AQI":"119","Pollutant":"細懸浮微粒","Status":"對敏感族群不健康","SO2":"3.6","CO":"0.43","CO_8hr":"0.5","O3":"84","O3_8hr":"35","PM10":"77","PM2.5":"46","NO2":"14.5","NOx":"15.2","NO":"0.6","WindSpeed":"2.5","WindDirec":"296","PublishTime":"2021/12/15 13:00:00","PM2.5_AVG":"42","PM10_AVG":"72","SO2_AVG":"3","Longitude":"120.292917","Latitude":"22.674861","SiteId":"54","ImportDate":"2021-12-15 13:22:01.380000"},{"SiteName":"前金","County":"高雄市","AQI":"111","Pollutant":"細懸浮微粒","Status":"對敏感族群不健康","SO2":"2.6","CO":"0.44","CO_8hr":"0.5","O3":"78.7","O3_8hr":"37","PM10":"65","PM2.5":"39","NO2":"11.9","NOx":"13.1","NO":"1.2","WindSpeed":"2.5","WindDirec":"357","PublishTime":"2021/12/15 13:00:00","PM2.5_AVG":"39","PM10_AVG":"74","SO2_AVG":"2","Longitude":"120.288086","Latitude":"22.632567","SiteId":"56","ImportDate":"2021-12-15 13:22:01.380000"},{"SiteName":"前鎮","County":"高雄市","AQI":"98","Pollutant":"細懸浮微粒","Status":"普通","SO2":"3.9","CO":"0.38","CO_8hr":"0.6","O3":"69.1","O3_8hr":"34","PM10":"51","PM2.5":"23","NO2":"17.2","NOx":"19.1","NO":"1.9","WindSpeed":"1.8","WindDirec":"325","PublishTime":"2021/12/15 13:00:00","PM2.5_AVG":"34","PM10_AVG":"72","SO2_AVG":"3","Longitude":"120.307564","Latitude":"22.605386","SiteId":"57","ImportDate":"2021-12-15 13:22:01.380000"},{"SiteName":"小港","County":"高雄市","AQI":"104","Pollutant":"細懸浮微粒","Status":"對敏感族群不健康","SO2":"4.6","CO":"0.35","CO_8hr":"0.6","O3":"57.9","O3_8hr":"29","PM10":"48","PM2.5":"20","NO2":"23.6","NOx":"27.3","NO":"3.7","WindSpeed":"3.3","WindDirec":"268","PublishTime":"2021/12/15 13:00:00","PM2.5_AVG":"36","PM10_AVG":"72","SO2_AVG":"3","Longitude":"120.337736","Latitude":"22.565833","SiteId":"58","ImportDate":"2021-12-15 13:22:01.380000"},{"SiteName":"屏東","County":"屏東縣","AQI":"106","Pollutant":"細懸浮微粒","Status":"對敏感族群不健康","SO2":"4.6","CO":"0.44","CO_8hr":"0.4","O3":"95.1","O3_8hr":"46","PM10":"75","PM2.5":"40","NO2":"14","NOx":"15.3","NO":"1.3","WindSpeed":"1.8","WindDirec":"283","PublishTime":"2021/12/15 13:00:00","PM2.5_AVG":"37","PM10_AVG":"75","SO2_AVG":"3","Longitude":"120.488033","Latitude":"22.673081","SiteId":"59","ImportDate":"2021-12-15 13:22:01.380000"},{"SiteName":"潮州","County":"屏東縣","AQI":"99","Pollutant":"細懸浮微粒","Status":"普通","SO2":"4.5","CO":"0.41","CO_8hr":"0.4","O3":"91.8","O3_8hr":"39","PM10":"62","PM2.5":"34","NO2":"9.3","NOx":"10.2","NO":"0.9","WindSpeed":"1.5","WindDirec":"240","PublishTime":"2021/12/15 13:00:00","PM2.5_AVG":"35","PM10_AVG":"69","SO2_AVG":"1","Longitude":"120.561175","Latitude":"22.523108","SiteId":"60","ImportDate":"2021-12-15 13:22:01.380000"},{"SiteName":"恆春","County":"屏東縣","AQI":"39","Pollutant":"","Status":"良好","SO2":"1.2","CO":"0.17","CO_8hr":"0.1","O3":"43.9","O3_8hr":"42","PM10":"10","PM2.5":"0","NO2":"1","NOx":"1.9","NO":"0.9","WindSpeed":"7","WindDirec":"38","PublishTime":"2021/12/15 13:00:00","PM2.5_AVG":"3","PM10_AVG":"9","SO2_AVG":"1","Longitude":"120.788928","Latitude":"21.958069","SiteId":"61","ImportDate":"2021-12-15 13:22:01.380000"},{"SiteName":"臺東","County":"臺東縣","AQI":"27","Pollutant":"","Status":"良好","SO2":"1.3","CO":"0.38","CO_8hr":"0.2","O3":"30.6","O3_8hr":"29","PM10":"14","PM2.5":"3","NO2":"8.2","NOx":"10.5","NO":"2.3","WindSpeed":"1.1","WindDirec":"310","PublishTime":"2021/12/15 13:00:00","PM2.5_AVG":"4","PM10_AVG":"9","SO2_AVG":"1","Longitude":"121.15045","Latitude":"22.755358","SiteId":"62","ImportDate":"2021-12-15 13:22:01.380000"},{"SiteName":"花蓮","County":"花蓮縣","AQI":"18","Pollutant":"","Status":"良好","SO2":"0.4","CO":"0.24","CO_8hr":"0.2","O3":"34.2","O3_8hr":"19","PM10":"7","PM2.5":"6","NO2":"3.6","NOx":"5","NO":"1.3","WindSpeed":"2","WindDirec":"224","PublishTime":"2021/12/15 13:00:00","PM2.5_AVG":"4","PM10_AVG":"6","SO2_AVG":"0","Longitude":"121.599769","Latitude":"23.971306","SiteId":"63","ImportDate":"2021-12-15 13:22:01.380000"},{"SiteName":"陽明","County":"臺北市","AQI":"37","Pollutant":"","Status":"良好","SO2":"1.1","CO":"0.2","CO_8hr":"0.2","O3":"41.7","O3_8hr":"40","PM10":"2","PM2.5":"0","NO2":"1.4","NOx":"2.6","NO":"1.1","WindSpeed":"3.1","WindDirec":"190","PublishTime":"2021/12/15 13:00:00","PM2.5_AVG":"2","PM10_AVG":"2","SO2_AVG":"1","Longitude":"121.529583","Latitude":"25.182722","SiteId":"64","ImportDate":"2021-12-15 13:22:01.380000"},{"SiteName":"宜蘭","County":"宜蘭縣","AQI":"22","Pollutant":"","Status":"良好","SO2":"0.6","CO":"0.24","CO_8hr":"0.3","O3":"44","O3_8hr":"16","PM10":"12","PM2.5":"6","NO2":"5.5","NOx":"6.8","NO":"1.2","WindSpeed":"2","WindDirec":"31","PublishTime":"2021/12/15 13:00:00","PM2.5_AVG":"6","PM10_AVG":"10","SO2_AVG":"0","Longitude":"121.746394","Latitude":"24.747917","SiteId":"65","ImportDate":"2021-12-15 13:22:01.380000"},{"SiteName":"冬山","County":"宜蘭縣","AQI":"18","Pollutant":"","Status":"良好","SO2":"0.7","CO":"0.34","CO_8hr":"0.3","O3":"25.3","O3_8hr":"10","PM10":"14","PM2.5":"6","NO2":"11.3","NOx":"16.3","NO":"5","WindSpeed":"1.7","WindDirec":"277","PublishTime":"2021/12/15 13:00:00","PM2.5_AVG":"5","PM10_AVG":"16","SO2_AVG":"0","Longitude":"121.792928","Latitude":"24.632203","SiteId":"66","ImportDate":"2021-12-15 13:22:01.380000"},{"SiteName":"三重","County":"新北市","AQI":"47","Pollutant":"","Status":"良好","SO2":"1.3","CO":"0.97","CO_8hr":"1.7","O3":"21.3","O3_8hr":"6","PM10":"8","PM2.5":"6","NO2":"28","NOx":"63.7","NO":"35.7","WindSpeed":"-","WindDirec":"-","PublishTime":"2021/12/15 13:00:00","PM2.5_AVG":"10","PM10_AVG":"15","SO2_AVG":"1","Longitude":"121.493806","Latitude":"25.072611","SiteId":"67","ImportDate":"2021-12-15 13:22:01.380000"},{"SiteName":"中壢","County":"桃園市","AQI":"60","Pollutant":"二氧化氮","Status":"普通","SO2":"3.4","CO":"0.93","CO_8hr":"1.4","O3":"","O3_8hr":"2","PM10":"43","PM2.5":"20","NO2":"44","NOx":"66.5","NO":"22.4","WindSpeed":"0.8","WindDirec":"273","PublishTime":"2021/12/15 13:00:00","PM2.5_AVG":"14","PM10_AVG":"27","SO2_AVG":"2","Longitude":"121.221667","Latitude":"24.953278","SiteId":"68","ImportDate":"2021-12-15 13:22:01.380000"},{"SiteName":"竹山","County":"南投縣","AQI":"64","Pollutant":"細懸浮微粒","Status":"普通","SO2":"1.6","CO":"0.28","CO_8hr":"0.3","O3":"79.2","O3_8hr":"32","PM10":"42","PM2.5":"24","NO2":"7.9","NOx":"9.9","NO":"1.9","WindSpeed":"1.3","WindDirec":"272","PublishTime":"2021/12/15 13:00:00","PM2.5_AVG":"20","PM10_AVG":"34","SO2_AVG":"1","Longitude":"120.677306","Latitude":"23.756389","SiteId":"69","ImportDate":"2021-12-15 13:22:01.380000"},{"SiteName":"永和","County":"新北市","AQI":"29","Pollutant":"","Status":"良好","SO2":"0.1","CO":"0.32","CO_8hr":"1.4","O3":"38.9","O3_8hr":"14","PM10":"5","PM2.5":"4","NO2":"6","NOx":"9.2","NO":"3.1","WindSpeed":"2.6","WindDirec":"97","PublishTime":"2021/12/15 13:00:00","PM2.5_AVG":"8","PM10_AVG":"14","SO2_AVG":"0","Longitude":"121.516306","Latitude":"25.017","SiteId":"70","ImportDate":"2021-12-15 13:22:01.380000"},{"SiteName":"復興","County":"高雄市","AQI":"101","Pollutant":"細懸浮微粒","Status":"對敏感族群不健康","SO2":"2.7","CO":"0.46","CO_8hr":"0.8","O3":"70.7","O3_8hr":"33","PM10":"39","PM2.5":"18","NO2":"14.8","NOx":"60.6","NO":"45.7","WindSpeed":"0.6","WindDirec":"224","PublishTime":"2021/12/15 13:00:00","PM2.5_AVG":"35","PM10_AVG":"70","SO2_AVG":"2","Longitude":"120.312017","Latitude":"22.608711","SiteId":"71","ImportDate":"2021-12-15 13:22:01.380000"},{"SiteName":"埔里","County":"南投縣","AQI":"49","Pollutant":"","Status":"良好","SO2":"1.4","CO":"0.22","CO_8hr":"0.4","O3":"55.9","O3_8hr":"27","PM10":"10","PM2.5":"7","NO2":"4.1","NOx":"5.2","NO":"1","WindSpeed":"1.7","WindDirec":"19","PublishTime":"2021/12/15 13:00:00","PM2.5_AVG":"15","PM10_AVG":"21","SO2_AVG":"1","Longitude":"120.967903","Latitude":"23.968842","SiteId":"72","ImportDate":"2021-12-15 13:22:01.380000"},{"SiteName":"馬祖","County":"連江縣","AQI":"66","Pollutant":"細懸浮微粒","Status":"普通","SO2":"1.8","CO":"0.27","CO_8hr":"0.3","O3":"","O3_8hr":"24","PM10":"","PM2.5":"21","NO2":"9.5","NOx":"12.2","NO":"2.7","WindSpeed":"3.6","WindDirec":"308","PublishTime":"2021/12/15 13:00:00","PM2.5_AVG":"21","PM10_AVG":"36","SO2_AVG":"2","Longitude":"119.949875","Latitude":"26.160469","SiteId":"75","ImportDate":"2021-12-15 13:22:01.380000"},{"SiteName":"金門","County":"金門縣","AQI":"63","Pollutant":"細懸浮微粒","Status":"普通","SO2":"2.5","CO":"0.32","CO_8hr":"0.3","O3":"","O3_8hr":"21","PM10":"39","PM2.5":"","NO2":"6.1","NOx":"7.2","NO":"1","WindSpeed":"1.9","WindDirec":"78","PublishTime":"2021/12/15 13:00:00","PM2.5_AVG":"20","PM10_AVG":"44","SO2_AVG":"2","Longitude":"118.312256","Latitude":"24.432133","SiteId":"77","ImportDate":"2021-12-15 13:22:01.380000"},{"SiteName":"馬公","County":"澎湖縣","AQI":"62","Pollutant":"細懸浮微粒","Status":"普通","SO2":"0.8","CO":"0.27","CO_8hr":"0.2","O3":"","O3_8hr":"36","PM10":"42","PM2.5":"","NO2":"7.5","NOx":"8.7","NO":"1.1","WindSpeed":"3.8","WindDirec":"25","PublishTime":"2021/12/15 13:00:00","PM2.5_AVG":"20","PM10_AVG":"37","SO2_AVG":"0","Longitude":"119.566158","Latitude":"23.569031","SiteId":"78","ImportDate":"2021-12-15 13:22:01.380000"},{"SiteName":"關山","County":"臺東縣","AQI":"17","Pollutant":"","Status":"良好","SO2":"1.4","CO":"-","CO_8hr":"-","O3":"","O3_8hr":"18","PM10":"9","PM2.5":"0","NO2":"3.3","NOx":"4.3","NO":"0.9","WindSpeed":"0.9","WindDirec":"240","PublishTime":"2021/12/15 13:00:00","PM2.5_AVG":"3","PM10_AVG":"11","SO2_AVG":"0","Longitude":"121.161933","Latitude":"23.045083","SiteId":"80","ImportDate":"2021-12-15 13:22:01.380000"},{"SiteName":"麥寮","County":"雲林縣","AQI":"88","Pollutant":"細懸浮微粒","Status":"普通","SO2":"2.6","CO":"0.31","CO_8hr":"0.3","O3":"57.5","O3_8hr":"26","PM10":"68","PM2.5":"37","NO2":"10.1","NOx":"12.7","NO":"2.6","WindSpeed":"3.4","WindDirec":"334","PublishTime":"2021/12/15 13:00:00","PM2.5_AVG":"30","PM10_AVG":"66","SO2_AVG":"1","Longitude":"120.251825","Latitude":"23.753506","SiteId":"83","ImportDate":"2021-12-15 13:22:01.380000"},{"SiteName":"富貴角","County":"新北市","AQI":"34","Pollutant":"","Status":"良好","SO2":"0.7","CO":"0.18","CO_8hr":"0.2","O3":"49.1","O3_8hr":"37","PM10":"20","PM2.5":"3","NO2":"2.9","NOx":"3.7","NO":"0.7","WindSpeed":"1.5","WindDirec":"84","PublishTime":"2021/12/15 13:00:00","PM2.5_AVG":"5","PM10_AVG":"24","SO2_AVG":"0","Longitude":"121.54738","Latitude":"25.29228","SiteId":"84","ImportDate":"2021-12-15 13:22:01.380000"},{"SiteName":"大城","County":"彰化縣","AQI":"85","Pollutant":"細懸浮微粒","Status":"普通","SO2":"1.2","CO":"0.23","CO_8hr":"0.2","O3":"55.2","O3_8hr":"25","PM10":"59","PM2.5":"27","NO2":"9.9","NOx":"11.6","NO":"1.6","WindSpeed":"7.4","WindDirec":"294","PublishTime":"2021/12/15 13:00:00","PM2.5_AVG":"29","PM10_AVG":"67","SO2_AVG":"1","Longitude":"120.26964167","Latitude":"23.85493056","SiteId":"85","ImportDate":"2021-12-15 13:22:01.380000"},{"SiteName":"高雄(湖內)","County":"高雄市","AQI":"113","Pollutant":"細懸浮微粒","Status":"對敏感族群不健康","SO2":"2.4","CO":"0.39","CO_8hr":"0.4","O3":"","O3_8hr":"15","PM10":"","PM2.5":"","NO2":"13.7","NOx":"15","NO":"1.3","WindSpeed":"2.2","WindDirec":"318","PublishTime":"2021/12/15 13:00:00","PM2.5_AVG":"40","PM10_AVG":"73","SO2_AVG":"2","Longitude":"120.24535","Latitude":"22.87985556","SiteId":"202","ImportDate":"2021-12-15 13:22:01.380000"},{"SiteName":"臺南(麻豆)","County":"臺南市","AQI":"94","Pollutant":"細懸浮微粒","Status":"普通","SO2":"2","CO":"0.35","CO_8hr":"0.4","O3":"67.8","O3_8hr":"","PM10":"70","PM2.5":"31","NO2":"9.2","NOx":"10.3","NO":"1.1","WindSpeed":"1.5","WindDirec":"345","PublishTime":"2021/12/15 13:00:00","PM2.5_AVG":"32","PM10_AVG":"76","SO2_AVG":"1","Longitude":"120.24583056","Latitude":"23.17904722","SiteId":"203","ImportDate":"2021-12-15 13:22:01.380000"},{"SiteName":"屏東(琉球)","County":"屏東縣","AQI":"129","Pollutant":"細懸浮微粒","Status":"對敏感族群不健康","SO2":"4.7","CO":"0.66","CO_8hr":"0.7","O3":"91.6","O3_8hr":"45","PM10":"","PM2.5":"43","NO2":"","NOx":"","NO":"","WindSpeed":"2.5","WindDirec":"313","PublishTime":"2021/12/15 13:00:00","PM2.5_AVG":"46","PM10_AVG":"105","SO2_AVG":"4","Longitude":"120.37722","Latitude":"22.35222","SiteId":"204","ImportDate":"2021-12-15 13:22:01.380000"},{"SiteName":"新北(樹林)","County":"新北市","AQI":"52","Pollutant":"二氧化氮","Status":"普通","SO2":"1.1","CO":"0.59","CO_8hr":"0.5","O3":"30.2","O3_8hr":"10","PM10":"21","PM2.5":"8","NO2":"32.4","NOx":"40.2","NO":"7.8","WindSpeed":"0.2","WindDirec":"183","PublishTime":"2021/12/15 13:00:00","PM2.5_AVG":"8","PM10_AVG":"15","SO2_AVG":"0","Longitude":"121.38352778","Latitude":"24.94902778","SiteId":"311","ImportDate":"2021-12-15 13:22:01.380000"},{"SiteName":"臺南(學甲)","County":"臺南市","AQI":"105","Pollutant":"細懸浮微粒","Status":"對敏感族群不健康","SO2":"1.7","CO":"0.37","CO_8hr":"0.3","O3":"45.3","O3_8hr":"19","PM10":"91","PM2.5":"47","NO2":"23.7","NOx":"39.3","NO":"15.5","WindSpeed":"1.6","WindDirec":"319","PublishTime":"2021/12/15 13:00:00","PM2.5_AVG":"36","PM10_AVG":"77","SO2_AVG":"0","Longitude":"120.18339722","Latitude":"23.23688056","SiteId":"312","ImportDate":"2021-12-15 13:22:01.380000"},{"SiteName":"屏東(枋寮)","County":"屏東縣","AQI":"98","Pollutant":"細懸浮微粒","Status":"普通","SO2":"3.8","CO":"0.46","CO_8hr":"0.4","O3":"77.4","O3_8hr":"38","PM10":"65","PM2.5":"36","NO2":"12.2","NOx":"12.6","NO":"0.3","WindSpeed":"2.1","WindDirec":"280","PublishTime":"2021/12/15 13:00:00","PM2.5_AVG":"34","PM10_AVG":"63","SO2_AVG":"4","Longitude":"120.59036944","Latitude":"22.38474167","SiteId":"313","ImportDate":"2021-12-15 13:22:01.380000"}], "limit": 1000, "offset": 0, "_links": {"start": "/api/v1/aqx_p_432?api_key=9be7b239-557b-4c10-9775-78cadfc555e9&limit=1000&format=json", "next": "/api/v1/aqx_p_432?api_key=9be7b239-557b-4c10-9775-78cadfc555e9&limit=1000&offset=1000&format=json"}, "distribution": [{"qcLevel": "/result/records"}], "total": 84}